[{"name": "München", "coordinates": [11.5755, 48.1374], "pop": 1505005, "tier": 1}, {"name": "Nürnberg", "coordinates": [11.0775, 49.4542], "pop": 515543, "tier": 1}, {"name": "Augsburg", "coordinates": [10.8985, 48.3715], "pop": 301105, "tier": 1}, {"name": "Regensburg", "coordinates": [12.1016, 49.0151], "pop": 151389, "tier": 2}, {"name": "Würzburg", "coordinates": [9.9512, 49.7939], "pop": 133731, "tier": 2}, {"name": "Fürth", "coordinates": [10.9886, 49.4759], "pop": 132036, "tier": 2}, {"name": "Ingolstadt", "coordinates": [11.4237, 48.7651], "pop": 120658, "tier": 2}, {"name": "Erlangen", "coordinates": [11.0078, 49.591], "pop": 102675, "tier": 2}, {"name": "Bayreuth", "coordinates": [11.5789, 49.9478], "pop": 72940, "tier": 3}, {"name": "Landshut", "coordinates": [12.1618, 48.5296], "pop": 71863, "tier": 3}, {"name": "Bamberg", "coordinates": [10.9007, 49.8987], "pop": 70047, "tier": 3}, {"name": "Aschaffenburg", "coordinates": [9.1521, 49.977], "pop": 68551, "tier": 3}, {"name": "Kempten (Allgäu)", "coordinates": [10.3139, 47.7267], "pop": 61399, "tier": 3}, {"name": "Rosenheim", "coordinates": [12.1225, 47.8564], "pop": 60167, "tier": 3}, {"name": "Schweinfurt", "coordinates": [10.2218, 50.0494], "pop": 54012, "tier": 3}, {"name": "Neu-Ulm", "coordinates": [10.0111, 48.3928], "pop": 51389, "tier": 3}, {"name": "Passau", "coordinates": [13.4312, 48.5665], "pop": 50560, "tier": 3}, {"name": "Hof", "coordinates": [11.9126, 50.313], "pop": 49239, "tier": 3}, {"name": "Amberg", "coordinates": [11.8627, 49.4429], "pop": 44737, "tier": 3}, {"name": "Straubing", "coordinates": [12.5739, 48.8813], "pop": 44580, "tier": 3}, {"name": "Memmingen", "coordinates": [10.1853, 47.9837], "pop": 44192, "tier": 3}, {"name": "Freising", "coordinates": [11.7488, 48.4035], "pop": 42570, "tier": 3}, {"name": "Weiden", "coordinates": [12.1561, 49.6768], "pop": 42550, "tier": 3}, {"name": "Kaufbeuren", "coordinates": [10.6219, 47.8824], "pop": 42505, "tier": 3}, {"name": "Coburg", "coordinates": [10.9638, 50.2594], "pop": 41901, "tier": 3}, {"name": "Germering", "coordinates": [11.3765, 48.1339], "pop": 40916, "tier": 3}, {"name": "Dachau", "coordinates": [11.434, 48.26], "pop": 39740, "tier": 3}, {"name": "Neumarkt in der Oberpfalz", "coordinates": [11.4628, 49.2803], "pop": 39557, "tier": 3}, {"name": "Schwabach", "coordinates": [11.0235, 49.3305], "pop": 38554, "tier": 3}, {"name": "Fürstenfeldbruck", "coordinates": [11.2547, 48.179], "pop": 33533, "tier": 3}, {"name": "Erding", "coordinates": [11.9069, 48.306], "pop": 33519, "tier": 3}, {"name": "Ansbach", "coordinates": [10.5931, 49.3048], "pop": 31839, "tier": 3}, {"name": "Deggendorf", "coordinates": [12.9607, 48.8409], "pop": 31081, "tier": 3}, {"name": "Forchheim", "coordinates": [11.0588, 49.7175], "pop": 30442, "tier": 3}, {"name": "Friedberg", "coordinates": [10.9846, 48.3569], "pop": 29953, "tier": 3}, {"name": "Unterschleißheim", "coordinates": [11.5768, 48.2804], "pop": 28482, "tier": 3}, {"name": "Neuburg an der Donau", "coordinates": [11.1871, 48.7322], "pop": 28370, "tier": 3}, {"name": "Schwandorf in Bayern", "coordinates": [12.1098, 49.3253], "pop": 28235, "tier": 3}, {"name": "Königsbrunn", "coordinates": [10.8918, 48.2751], "pop": 27879, "tier": 3}, {"name": "Kulmbach", "coordinates": [11.4503, 50.1007], "pop": 27565, "tier": 3}, {"name": "Landsberg am Lech", "coordinates": [10.8828, 48.0482], "pop": 27017, "tier": 3}, {"name": "Lauf an der Pegnitz", "coordinates": [11.2825, 49.5139], "pop": 26403, "tier": 3}, {"name": "Garmisch-Partenkirchen", "coordinates": [11.0958, 47.4921], "pop": 26022, "tier": 3}, {"name": "Zirndorf", "coordinates": [10.9541, 49.4424], "pop": 25734, "tier": 3}, {"name": "Roth", "coordinates": [11.0911, 49.2476], "pop": 25083, "tier": 3}, {"name": "Waldkraiburg", "coordinates": [12.3989, 48.2085], "pop": 24676, "tier": 4}, {"name": "Lindau", "coordinates": [9.6843, 47.5461], "pop": 24518, "tier": 4}, {"name": "Herzogenaurach", "coordinates": [10.8857, 49.568], "pop": 24237, "tier": 4}, {"name": "Olching", "coordinates": [11.3333, 48.2], "pop": 23978, "tier": 4}, {"name": "Starnberg", "coordinates": [11.3442, 48.0019], "pop": 23940, "tier": 4}, {"name": "Weilheim", "coordinates": [11.1548, 47.8415], "pop": 23378, "tier": 4}, {"name": "Geretsried", "coordinates": [11.4805, 47.8578], "pop": 23364, "tier": 4}, {"name": "Pfaffenhofen an der Ilm", "coordinates": [11.505, 48.5305], "pop": 23192, "tier": 4}, {"name": "Neusäß", "coordinates": [10.8333, 48.3925], "pop": 22904, "tier": 4}, {"name": "Senden", "coordinates": [10.0444, 48.3244], "pop": 22275, "tier": 4}, {"name": "Kitzingen", "coordinates": [10.1507, 49.7397], "pop": 21387, "tier": 4}, {"name": "Lichtenfels", "coordinates": [11.0593, 50.1457], "pop": 21336, "tier": 4}, {"name": "Bad Kissingen", "coordinates": [10.0778, 50.2023], "pop": 21328, "tier": 4}, {"name": "Sonthofen", "coordinates": [10.2826, 47.5182], "pop": 21285, "tier": 4}, {"name": "Traunreut", "coordinates": [12.5923, 47.9627], "pop": 21244, "tier": 4}, {"name": "Aichach", "coordinates": [11.1341, 48.4575], "pop": 21042, "tier": 4}, {"name": "Vaterstetten", "coordinates": [11.7683, 48.1054], "pop": 21007, "tier": 4}, {"name": "Unterhaching", "coordinates": [11.6156, 48.066], "pop": 20852, "tier": 4}, {"name": "Nördlingen", "coordinates": [10.4887, 48.8512], "pop": 20352, "tier": 4}, {"name": "Gersthofen", "coordinates": [10.8727, 48.4243], "pop": 20254, "tier": 4}, {"name": "Günzburg", "coordinates": [10.2769, 48.456], "pop": 19737, "tier": 4}, {"name": "Sulzbach-Rosenberg", "coordinates": [11.746, 49.5013], "pop": 19379, "tier": 4}, {"name": "Puchheim", "coordinates": [11.35, 48.15], "pop": 19357, "tier": 4}, {"name": "Gauting", "coordinates": [11.377, 48.0692], "pop": 19216, "tier": 4}, {"name": "Ottobrunn bei München", "coordinates": [11.6633, 48.0649], "pop": 19204, "tier": 4}, {"name": "Gröbenzell", "coordinates": [11.3667, 48.2], "pop": 19110, "tier": 4}, {"name": "Alzenau in Unterfranken", "coordinates": [9.0646, 50.0888], "pop": 18932, "tier": 4}, {"name": "Dingolfing", "coordinates": [12.4928, 48.6424], "pop": 18805, "tier": 4}, {"name": "Dillingen an der Donau", "coordinates": [10.4953, 48.5815], "pop": 18734, "tier": 4}, {"name": "Marktoberdorf", "coordinates": [10.6171, 47.7796], "pop": 18505, "tier": 4}, {"name": "Traunstein", "coordinates": [12.6433, 47.8683], "pop": 18422, "tier": 4}, {"name": "Donauwörth", "coordinates": [10.7793, 48.718], "pop": 18364, "tier": 4}, {"name": "Weißenburg in Bayern", "coordinates": [10.9722, 49.0309], "pop": 18345, "tier": 4}, {"name": "Burghausen", "coordinates": [12.8314, 48.1692], "pop": 18263, "tier": 4}, {"name": "Neufahrn bei Freising", "coordinates": [11.6632, 48.3159], "pop": 18255, "tier": 4}, {"name": "Kronach", "coordinates": [11.3331, 50.2396], "pop": 18248, "tier": 4}, {"name": "Marktredwitz", "coordinates": [12.0859, 50.0044], "pop": 18204, "tier": 4}, {"name": "Kolbermoor", "coordinates": [12.067, 47.8496], "pop": 17941, "tier": 4}, {"name": "Karlsfeld", "coordinates": [11.4757, 48.227], "pop": 17920, "tier": 4}, {"name": "Bad Aibling", "coordinates": [12.0106, 47.8638], "pop": 17672, "tier": 4}, {"name": "Garching", "coordinates": [11.651, 48.249], "pop": 17656, "tier": 4}, {"name": "Mühldorf", "coordinates": [12.5215, 48.2467], "pop": 17622, "tier": 4}, {"name": "Haar", "coordinates": [11.7265, 48.1088], "pop": 17560, "tier": 4}, {"name": "Bad Tölz", "coordinates": [11.5589, 47.7611], "pop": 17434, "tier": 4}, {"name": "Moosburg", "coordinates": [11.9381, 48.4709], "pop": 17363, "tier": 4}, {"name": "Cham", "coordinates": [12.655, 49.2257], "pop": 17314, "tier": 4}, {"name": "Oberasbach", "coordinates": [10.9577, 49.4228], "pop": 17306, "tier": 4}, {"name": "Wolfratshausen", "coordinates": [11.4217, 47.9129], "pop": 17191, "tier": 4}, {"name": "Selb", "coordinates": [12.1305, 50.1706], "pop": 17132, "tier": 4}, {"name": "Bad Reichenhall", "coordinates": [12.8782, 47.7295], "pop": 16910, "tier": 4}, {"name": "Gilching", "coordinates": [11.2936, 48.1076], "pop": 16859, "tier": 4}, {"name": "Vilshofen", "coordinates": [13.1922, 48.627], "pop": 16695, "tier": 4}, {"name": "Bobingen", "coordinates": [10.8339, 48.2709], "pop": 16682, "tier": 4}, {"name": "Illertissen", "coordinates": [10.1035, 48.2234], "pop": 16522, "tier": 4}, {"name": "Gunzenhausen", "coordinates": [10.7597, 49.1166], "pop": 16477, "tier": 4}, {"name": "Wendelstein", "coordinates": [11.1507, 49.3523], "pop": 16446, "tier": 4}, {"name": "Großostheim", "coordinates": [9.076, 49.9198], "pop": 16346, "tier": 4}, {"name": "Schrobenhausen", "coordinates": [11.2607, 48.5607], "pop": 16143, "tier": 4}, {"name": "Lohr am Main", "coordinates": [9.5722, 49.9892], "pop": 16127, "tier": 4}, {"name": "Penzberg", "coordinates": [11.377, 47.7529], "pop": 16079, "tier": 4}, {"name": "Freilassing", "coordinates": [12.9811, 47.8409], "pop": 15909, "tier": 4}, {"name": "Bruckmühl", "coordinates": [11.911, 47.8786], "pop": 15851, "tier": 4}, {"name": "Kelheim", "coordinates": [11.8862, 48.9173], "pop": 15723, "tier": 4}, {"name": "Füssen", "coordinates": [10.7017, 47.5714], "pop": 15608, "tier": 4}, {"name": "Bad Neustadt an der Saale", "coordinates": [10.2067, 50.3217], "pop": 15434, "tier": 4}, {"name": "Altdorf bei Nürnberg", "coordinates": [11.3573, 49.3856], "pop": 15312, "tier": 4}, {"name": "Karlstadt", "coordinates": [9.7724, 49.9603], "pop": 15272, "tier": 4}, {"name": "Regenstauf", "coordinates": [12.1303, 49.1201], "pop": 14999, "tier": 4}, {"name": "Neustadt bei Coburg", "coordinates": [11.1206, 50.3297], "pop": 14824, "tier": 4}, {"name": "Landau an der Isar", "coordinates": [12.6932, 48.6725], "pop": 14801, "tier": 4}, {"name": "Neustadt an der Donau", "coordinates": [11.7695, 48.807], "pop": 14778, "tier": 4}, {"name": "Stadtbergen", "coordinates": [10.8464, 48.3664], "pop": 14705, "tier": 4}, {"name": "Pocking", "coordinates": [13.3132, 48.4015], "pop": 14646, "tier": 4}, {"name": "Ismaning", "coordinates": [11.6833, 48.2333], "pop": 14596, "tier": 4}, {"name": "Immenstadt im Allgäu", "coordinates": [10.2139, 47.56], "pop": 14431, "tier": 4}, {"name": "Pegnitz", "coordinates": [11.5419, 49.7522], "pop": 14279, "tier": 4}, {"name": "Mindelheim", "coordinates": [10.4922, 48.0458], "pop": 14122, "tier": 4}, {"name": "Bad Wörishofen", "coordinates": [10.5967, 48.0067], "pop": 14028, "tier": 4}, {"name": "Mainburg", "coordinates": [11.7809, 48.6418], "pop": 13959, "tier": 4}, {"name": "Grafing bei München", "coordinates": [11.968, 48.046], "pop": 13942, "tier": 4}, {"name": "Stein", "coordinates": [11.016, 49.4158], "pop": 13902, "tier": 4}, {"name": "Höchstadt an der Aisch", "coordinates": [10.8133, 49.7062], "pop": 13867, "tier": 4}, {"name": "Rödental", "coordinates": [11.0412, 50.2952], "pop": 13712, "tier": 4}, {"name": "Haßfurt", "coordinates": [10.5156, 50.0352], "pop": 13562, "tier": 4}, {"name": "Dorfen", "coordinates": [12.1606, 48.2704], "pop": 13487, "tier": 4}, {"name": "Feucht", "coordinates": [11.2143, 49.376], "pop": 13482, "tier": 4}, {"name": "Weißenhorn", "coordinates": [10.1605, 48.305], "pop": 13377, "tier": 4}, {"name": "Schwabmünchen", "coordinates": [10.7568, 48.1793], "pop": 13232, "tier": 4}, {"name": "Vöhringen", "coordinates": [10.0824, 48.2784], "pop": 13207, "tier": 4}, {"name": "Hösbach", "coordinates": [9.2076, 50.0065], "pop": 13203, "tier": 4}, {"name": "Peißenberg", "coordinates": [11.0699, 47.8047], "pop": 13148, "tier": 4}, {"name": "Treuchtlingen", "coordinates": [10.9083, 48.9547], "pop": 13141, "tier": 4}, {"name": "Eichstätt", "coordinates": [11.1967, 48.8885], "pop": 13125, "tier": 4}, {"name": "Hilpoltstein", "coordinates": [11.1906, 49.1905], "pop": 13069, "tier": 4}, {"name": "Gräfelfing", "coordinates": [11.4294, 48.1188], "pop": 12978, "tier": 4}, {"name": "Altötting", "coordinates": [12.6767, 48.2253], "pop": 12902, "tier": 4}, {"name": "Eggenfelden", "coordinates": [12.7575, 48.4051], "pop": 12860, "tier": 4}, {"name": "Mering", "coordinates": [10.9846, 48.2656], "pop": 12820, "tier": 4}, {"name": "Krumbach", "coordinates": [10.3632, 48.2418], "pop": 12805, "tier": 4}, {"name": "Lappersdorf", "coordinates": [12.0913, 49.0469], "pop": 12744, "tier": 4}, {"name": "Neubiberg", "coordinates": [11.6581, 48.0771], "pop": 12717, "tier": 4}, {"name": "Neutraubling", "coordinates": [12.201, 48.9874], "pop": 12620, "tier": 4}, {"name": "Abensberg", "coordinates": [11.8498, 48.8168], "pop": 12570, "tier": 4}, {"name": "Bad Abbach", "coordinates": [12.0449, 48.9375], "pop": 12545, "tier": 4}, {"name": "Hauzenberg", "coordinates": [13.6265, 48.6496], "pop": 12522, "tier": 4}, {"name": "Maisach", "coordinates": [11.2667, 48.2167], "pop": 12507, "tier": 4}, {"name": "Oberhaching", "coordinates": [11.5974, 48.0245], "pop": 12470, "tier": 4}, {"name": "Neustadt an der Aisch", "coordinates": [10.6113, 49.5795], "pop": 12448, "tier": 4}, {"name": "Schongau", "coordinates": [10.8966, 47.8124], "pop": 12442, "tier": 4}, {"name": "Hersbruck", "coordinates": [11.4315, 49.5108], "pop": 12404, "tier": 4}, {"name": "Plattling", "coordinates": [12.8751, 48.7787], "pop": 12390, "tier": 4}, {"name": "Wasserburg am Inn", "coordinates": [12.2234, 48.0525], "pop": 12375, "tier": 4}, {"name": "Regen", "coordinates": [13.1282, 48.9719], "pop": 12296, "tier": 4}, {"name": "Mömbris", "coordinates": [9.1637, 50.0692], "pop": 12287, "tier": 4}, {"name": "Feuchtwangen", "coordinates": [10.3385, 49.1629], "pop": 12267, "tier": 4}, {"name": "Dinkelsbühl", "coordinates": [10.3199, 49.0694], "pop": 12260, "tier": 4}, {"name": "Röthenbach an der Pegnitz", "coordinates": [11.2412, 49.483], "pop": 12224, "tier": 4}, {"name": "Peiting", "coordinates": [10.9295, 47.7955], "pop": 12106, "tier": 4}, {"name": "Burglengenfeld", "coordinates": [12.0445, 49.2038], "pop": 12095, "tier": 4}, {"name": "Bad Windsheim", "coordinates": [10.4154, 49.5027], "pop": 12022, "tier": 4}, {"name": "Hammelburg", "coordinates": [9.8914, 50.1163], "pop": 12004, "tier": 4}, {"name": "Buchloe", "coordinates": [10.7255, 48.0372], "pop": 11978, "tier": 4}, {"name": "Murnau am Staffelsee", "coordinates": [11.2012, 47.6808], "pop": 11958, "tier": 4}, {"name": "Pfarrkirchen", "coordinates": [12.9381, 48.432], "pop": 11894, "tier": 4}, {"name": "Osterhofen", "coordinates": [13.0222, 48.7], "pop": 11870, "tier": 4}, {"name": "Trostberg an der Alz", "coordinates": [12.558, 48.028], "pop": 11676, "tier": 4}, {"name": "Eichenau", "coordinates": [11.3167, 48.1667], "pop": 11637, "tier": 4}, {"name": "Poing", "coordinates": [11.8186, 48.17], "pop": 11592, "tier": 4}, {"name": "Lindenberg", "coordinates": [9.8855, 47.6028], "pop": 11587, "tier": 4}, {"name": "Burgthann", "coordinates": [11.3115, 49.352], "pop": 11567, "tier": 4}, {"name": "Münchberg", "coordinates": [11.7882, 50.1895], "pop": 11557, "tier": 4}, {"name": "Lauingen", "coordinates": [10.4271, 48.5677], "pop": 11510, "tier": 4}, {"name": "Hirschaid", "coordinates": [10.9892, 49.8179], "pop": 11508, "tier": 4}, {"name": "Ochsenfurt", "coordinates": [10.0623, 49.6643], "pop": 11492, "tier": 4}, {"name": "Ergolding", "coordinates": [12.171, 48.5765], "pop": 11438, "tier": 4}, {"name": "Vilsbiburg", "coordinates": [12.356, 48.453], "pop": 11416, "tier": 4}, {"name": "Roding", "coordinates": [12.5196, 49.1943], "pop": 11406, "tier": 4}, {"name": "Raubling", "coordinates": [12.1109, 47.7905], "pop": 11382, "tier": 4}, {"name": "Schwarzenbach an der Saale", "coordinates": [11.935, 50.2228], "pop": 11375, "tier": 4}, {"name": "Gemünden am Main", "coordinates": [9.7059, 50.0495], "pop": 11375, "tier": 4}, {"name": "Altdorf", "coordinates": [12.1842, 48.1537], "pop": 11355, "tier": 4}, {"name": "Miesbach", "coordinates": [11.8338, 47.789], "pop": 11354, "tier": 4}, {"name": "Oberschleißheim", "coordinates": [11.5667, 48.25], "pop": 11290, "tier": 4}, {"name": "Manching", "coordinates": [11.4939, 48.7166], "pop": 11239, "tier": 4}, {"name": "Meitingen", "coordinates": [10.8518, 48.5459], "pop": 11201, "tier": 4}, {"name": "Kissing", "coordinates": [10.9709, 48.3038], "pop": 11150, "tier": 4}, {"name": "Rothenburg ob der Tauber", "coordinates": [10.1871, 49.3788], "pop": 11106, "tier": 4}, {"name": "Essenbach", "coordinates": [12.2183, 48.6133], "pop": 11070, "tier": 4}, {"name": "Ebersberg", "coordinates": [11.9706, 48.0771], "pop": 11041, "tier": 4}, {"name": "Marktheidenfeld", "coordinates": [9.6036, 49.8454], "pop": 11024, "tier": 4}, {"name": "Burgkirchen an der Alz", "coordinates": [12.7325, 48.1675], "pop": 11006, "tier": 4}, {"name": "Wolnzach", "coordinates": [11.6257, 48.6038], "pop": 10973, "tier": 4}, {"name": "Prien am Chiemsee", "coordinates": [12.3462, 47.856], "pop": 10915, "tier": 4}, {"name": "Markt Schwaben", "coordinates": [11.8691, 48.1895], "pop": 10857, "tier": 4}, {"name": "Gaimersheim", "coordinates": [11.368, 48.807], "pop": 10840, "tier": 4}, {"name": "Grünwald", "coordinates": [11.5232, 48.0395], "pop": 10836, "tier": 4}, {"name": "Waldkirchen", "coordinates": [13.6008, 48.7327], "pop": 10757, "tier": 4}, {"name": "Maxhütte-Haidhof", "coordinates": [12.0923, 49.1996], "pop": 10674, "tier": 4}, {"name": "Langenzenn", "coordinates": [10.7923, 49.4946], "pop": 10629, "tier": 4}, {"name": "Bad Staffelstein", "coordinates": [11.0013, 50.102], "pop": 10618, "tier": 4}, {"name": "Planegg", "coordinates": [11.4248, 48.1067], "pop": 10510, "tier": 4}, {"name": "Unterföhring", "coordinates": [11.6429, 48.1925], "pop": 10500, "tier": 4}, {"name": "Feldkirchen-Westerham", "coordinates": [11.8427, 47.9075], "pop": 10399, "tier": 4}, {"name": "Kümmersbruck", "coordinates": [11.8883, 49.4192], "pop": 10365, "tier": 4}, {"name": "Zwiesel", "coordinates": [13.2377, 49.0169], "pop": 10327, "tier": 4}, {"name": "Wunsiedel", "coordinates": [12.0034, 50.0392], "pop": 10295, "tier": 4}, {"name": "Veitshöchheim", "coordinates": [9.8817, 49.8328], "pop": 10279, "tier": 4}, {"name": "Bogen", "coordinates": [12.6896, 48.9112], "pop": 10259, "tier": 4}, {"name": "Cadolzburg", "coordinates": [10.8533, 49.4573], "pop": 10164, "tier": 4}, {"name": "Rehau", "coordinates": [12.0342, 50.2492], "pop": 10058, "tier": 4}, {"name": "Roßtal", "coordinates": [10.8885, 49.3957], "pop": 10052, "tier": 4}, {"name": "Werneck", "coordinates": [10.0988, 49.982], "pop": 10051, "tier": 4}, {"name": "Dießen am Ammersee", "coordinates": [11.1031, 47.9509], "pop": 10050, "tier": 4}, {"name": "Goldbach", "coordinates": [9.1844, 49.9995], "pop": 10044, "tier": 4}, {"name": "Ainring", "coordinates": [12.9405, 47.8131], "pop": 10028, "tier": 4}, {"name": "Diedorf", "coordinates": [10.7821, 48.3532], "pop": 10006, "tier": 4}, {"name": "Herrsching am Ammersee", "coordinates": [11.1768, 47.9989], "pop": 10000, "tier": 4}, {"name": "Simbach am Inn", "coordinates": [13.0231, 48.2655], "pop": 9979, "tier": 5}, {"name": "Altusried", "coordinates": [10.2143, 47.8041], "pop": 9950, "tier": 5}, {"name": "Kaufering", "coordinates": [10.8791, 48.0912], "pop": 9820, "tier": 5}, {"name": "Geisenfeld", "coordinates": [11.6123, 48.6843], "pop": 9769, "tier": 5}, {"name": "Erlenbach am Main", "coordinates": [9.1631, 49.8034], "pop": 9717, "tier": 5}, {"name": "Miltenberg", "coordinates": [9.2673, 49.7045], "pop": 9613, "tier": 5}, {"name": "Volkach", "coordinates": [10.2281, 49.8635], "pop": 9585, "tier": 5}, {"name": "Burgau", "coordinates": [10.4099, 48.4316], "pop": 9576, "tier": 5}, {"name": "Stephanskirchen", "coordinates": [12.1856, 47.8539], "pop": 9554, "tier": 5}, {"name": "Tutzing", "coordinates": [11.2803, 47.9094], "pop": 9517, "tier": 5}, {"name": "Helmbrechts", "coordinates": [11.7159, 50.2356], "pop": 9493, "tier": 5}, {"name": "Furth im Wald", "coordinates": [12.8416, 49.3096], "pop": 9480, "tier": 5}, {"name": "Höhenkirchen-Siegertsbrunn", "coordinates": [11.7191, 48.0193], "pop": 9465, "tier": 5}, {"name": "Lenggries", "coordinates": [11.5747, 47.6827], "pop": 9432, "tier": 5}, {"name": "Tirschenreuth", "coordinates": [12.3311, 49.8826], "pop": 9410, "tier": 5}, {"name": "Töging am Inn", "coordinates": [12.5846, 48.2602], "pop": 9392, "tier": 5}, {"name": "Heilsbronn", "coordinates": [10.7874, 49.3357], "pop": 9374, "tier": 5}, {"name": "Höchberg", "coordinates": [9.8822, 49.7845], "pop": 9372, "tier": 5}, {"name": "Oberstdorf", "coordinates": [10.2794, 47.4072], "pop": 9279, "tier": 5}, {"name": "Markt Indersdorf", "coordinates": [11.3779, 48.3606], "pop": 9263, "tier": 5}, {"name": "Nittendorf", "coordinates": [11.9613, 49.0246], "pop": 9226, "tier": 5}, {"name": "Nersingen", "coordinates": [10.1236, 48.4283], "pop": 9177, "tier": 5}, {"name": "Kirchseeon", "coordinates": [11.8887, 48.0714], "pop": 9174, "tier": 5}, {"name": "Auerbach", "coordinates": [11.6333, 49.692], "pop": 9089, "tier": 5}, {"name": "Waltenhofen", "coordinates": [10.307, 47.6732], "pop": 9045, "tier": 5}, {"name": "Teisendorf", "coordinates": [12.8192, 47.8492], "pop": 9019, "tier": 5}, {"name": "Memmelsdorf", "coordinates": [10.9592, 49.9301], "pop": 9001, "tier": 5}, {"name": "Wertingen", "coordinates": [10.6815, 48.5631], "pop": 8958, "tier": 5}, {"name": "Grafenau", "coordinates": [13.3974, 48.8577], "pop": 8870, "tier": 5}, {"name": "Obernburg am Main", "coordinates": [9.131, 49.8358], "pop": 8853, "tier": 5}, {"name": "Garching an der Alz", "coordinates": [12.5815, 48.1345], "pop": 8796, "tier": 5}, {"name": "Neuötting", "coordinates": [12.69, 48.241], "pop": 8741, "tier": 5}, {"name": "Elsenfeld", "coordinates": [9.1636, 49.8429], "pop": 8727, "tier": 5}, {"name": "Berching", "coordinates": [11.4414, 49.1069], "pop": 8696, "tier": 5}, {"name": "Taufkirchen", "coordinates": [12.132, 48.3499], "pop": 8690, "tier": 5}, {"name": "Schwarzenbruck", "coordinates": [11.2433, 49.3578], "pop": 8690, "tier": 5}, {"name": "Viechtach", "coordinates": [12.8857, 49.08], "pop": 8653, "tier": 5}, {"name": "Hemau", "coordinates": [11.782, 49.054], "pop": 8627, "tier": 5}, {"name": "Haibach", "coordinates": [9.2072, 49.9644], "pop": 8600, "tier": 5}, {"name": "Hohenbrunn", "coordinates": [11.7022, 48.0478], "pop": 8590, "tier": 5}, {"name": "Pullach im Isartal", "coordinates": [11.5215, 48.0612], "pop": 8589, "tier": 5}, {"name": "Zorneding", "coordinates": [11.8245, 48.0843], "pop": 8581, "tier": 5}, {"name": "Freystadt", "coordinates": [11.3303, 49.2001], "pop": 8555, "tier": 5}, {"name": "Ichenhausen", "coordinates": [10.3071, 48.3712], "pop": 8499, "tier": 5}, {"name": "Hallstadt", "coordinates": [10.8754, 49.929], "pop": 8485, "tier": 5}, {"name": "Nittenau", "coordinates": [12.2674, 49.1942], "pop": 8478, "tier": 5}, {"name": "Naila", "coordinates": [11.7046, 50.3303], "pop": 8441, "tier": 5}, {"name": "Bad Griesbach", "coordinates": [13.1933, 48.4518], "pop": 8431, "tier": 5}, {"name": "Kleinostheim", "coordinates": [9.0667, 50.0], "pop": 8409, "tier": 5}, {"name": "Arnstein", "coordinates": [9.9698, 49.9777], "pop": 8409, "tier": 5}, {"name": "Mainaschaff", "coordinates": [9.09, 49.9817], "pop": 8382, "tier": 5}, {"name": "Schwaig", "coordinates": [11.2006, 49.4695], "pop": 8340, "tier": 5}, {"name": "Küps", "coordinates": [11.276, 50.1927], "pop": 8282, "tier": 5}, {"name": "Neunkirchen am Brand", "coordinates": [11.1297, 49.612], "pop": 8243, "tier": 5}, {"name": "Schnaittach", "coordinates": [11.3433, 49.5596], "pop": 8238, "tier": 5}, {"name": "Siegsdorf", "coordinates": [12.6428, 47.8228], "pop": 8230, "tier": 5}, {"name": "Schonungen", "coordinates": [10.3081, 50.0501], "pop": 8230, "tier": 5}, {"name": "Hausham", "coordinates": [11.8407, 47.7466], "pop": 8177, "tier": 5}, {"name": "Neunburg vorm Wald", "coordinates": [12.3862, 49.3478], "pop": 8172, "tier": 5}, {"name": "Wenzenbach", "coordinates": [12.1995, 49.0756], "pop": 8101, "tier": 5}, {"name": "Ottobeuren", "coordinates": [10.2997, 47.9413], "pop": 8095, "tier": 5}, {"name": "Hallbergmoos", "coordinates": [11.7514, 48.3275], "pop": 8074, "tier": 5}, {"name": "Allersberg", "coordinates": [11.2366, 49.2513], "pop": 8054, "tier": 5}, {"name": "Dietmannsried", "coordinates": [10.2895, 47.8079], "pop": 8044, "tier": 5}, {"name": "Mittenwald", "coordinates": [11.2619, 47.4422], "pop": 7996, "tier": 5}, {"name": "Münnerstadt", "coordinates": [10.2019, 50.2464], "pop": 7987, "tier": 5}, {"name": "Niederwerrn", "coordinates": [10.1827, 50.0615], "pop": 7974, "tier": 5}, {"name": "Strullendorf", "coordinates": [10.9721, 49.8443], "pop": 7926, "tier": 5}, {"name": "Burkardroth", "coordinates": [9.9916, 50.2713], "pop": 7893, "tier": 5}, {"name": "Pfronten", "coordinates": [10.5496, 47.5822], "pop": 7890, "tier": 5}, {"name": "Gundelfingen", "coordinates": [10.3722, 48.5535], "pop": 7889, "tier": 5}, {"name": "Neuendettelsau", "coordinates": [10.7833, 49.2833], "pop": 7836, "tier": 5}, {"name": "Neunkirchen am Main", "coordinates": [11.6479, 49.923], "pop": 7784, "tier": 5}, {"name": "Herrieden", "coordinates": [10.5035, 49.2378], "pop": 7751, "tier": 5}, {"name": "Fürstenzell", "coordinates": [13.3175, 48.5216], "pop": 7719, "tier": 5}, {"name": "Rimpar", "coordinates": [9.9571, 49.8569], "pop": 7718, "tier": 5}, {"name": "Rottenburg an der Laaber", "coordinates": [12.0272, 48.7023], "pop": 7702, "tier": 5}, {"name": "Berchtesgaden", "coordinates": [13.0019, 47.6324], "pop": 7697, "tier": 5}, {"name": "Stockstadt am Main", "coordinates": [9.0715, 49.9701], "pop": 7663, "tier": 5}, {"name": "Langweid", "coordinates": [10.8531, 48.4909], "pop": 7653, "tier": 5}, {"name": "Dittelbrunn", "coordinates": [10.2197, 50.0721], "pop": 7620, "tier": 5}, {"name": "Reisbach", "coordinates": [12.628, 48.5701], "pop": 7610, "tier": 5}, {"name": "Hengersberg", "coordinates": [13.0549, 48.7726], "pop": 7551, "tier": 5}, {"name": "Vohenstrauß", "coordinates": [12.3381, 49.6238], "pop": 7550, "tier": 5}, {"name": "Bischofswiesen", "coordinates": [12.9831, 47.6311], "pop": 7535, "tier": 5}, {"name": "Krailling", "coordinates": [11.4, 48.1], "pop": 7528, "tier": 5}, {"name": "Waldsassen", "coordinates": [12.3043, 50.0017], "pop": 7505, "tier": 5}, {"name": "Pleinfeld", "coordinates": [10.9819, 49.1047], "pop": 7482, "tier": 5}, {"name": "Ergoldsbach", "coordinates": [12.2044, 48.6926], "pop": 7482, "tier": 5}, {"name": "Kötzting", "coordinates": [12.8552, 49.1765], "pop": 7471, "tier": 5}, {"name": "Neuried", "coordinates": [11.4656, 48.0932], "pop": 7469, "tier": 5}, {"name": "Bad Endorf", "coordinates": [12.298, 47.909], "pop": 7465, "tier": 5}, {"name": "Heroldsberg", "coordinates": [11.1555, 49.5325], "pop": 7429, "tier": 5}, {"name": "Teublitz", "coordinates": [12.0873, 49.2229], "pop": 7405, "tier": 5}, {"name": "Waldmünchen", "coordinates": [12.709, 49.378], "pop": 7392, "tier": 5}, {"name": "Postbauer-Heng", "coordinates": [11.3572, 49.3053], "pop": 7358, "tier": 5}, {"name": "Schierling", "coordinates": [12.1395, 48.8342], "pop": 7347, "tier": 5}, {"name": "Ortenburg", "coordinates": [13.2225, 48.546], "pop": 7317, "tier": 5}, {"name": "Bad Brückenau", "coordinates": [9.7898, 50.3085], "pop": 7304, "tier": 5}, {"name": "Reichertshofen", "coordinates": [11.4661, 48.6578], "pop": 7298, "tier": 5}, {"name": "Altomünster", "coordinates": [11.2569, 48.3877], "pop": 7275, "tier": 5}, {"name": "Mitterteich", "coordinates": [12.2421, 49.9514], "pop": 7252, "tier": 5}, {"name": "Greding", "coordinates": [11.357, 49.047], "pop": 7238, "tier": 5}, {"name": "Bindlach", "coordinates": [11.6139, 49.9817], "pop": 7229, "tier": 5}, {"name": "Bad Feilnbach", "coordinates": [12.0097, 47.7733], "pop": 7203, "tier": 5}, {"name": "Kahl am Main", "coordinates": [9.0055, 50.0698], "pop": 7198, "tier": 5}, {"name": "Scheßlitz", "coordinates": [11.033, 49.9757], "pop": 7195, "tier": 5}, {"name": "Oberstaufen", "coordinates": [10.0224, 47.5557], "pop": 7190, "tier": 5}, {"name": "Pfaffenhofen an der Roth", "coordinates": [10.1618, 48.3545], "pop": 7158, "tier": 5}, {"name": "Vohburg an der Donau", "coordinates": [11.6184, 48.7698], "pop": 7101, "tier": 5}, {"name": "Ruhstorf", "coordinates": [12.683, 48.5398], "pop": 7098, "tier": 5}, {"name": "Baiersdorf", "coordinates": [11.0359, 49.6581], "pop": 7071, "tier": 5}, {"name": "Bad Königshofen im Grabfeld", "coordinates": [10.4689, 50.3008], "pop": 7066, "tier": 5}, {"name": "Sulzbach am Main", "coordinates": [9.1532, 49.9115], "pop": 7057, "tier": 5}, {"name": "Obertraubling", "coordinates": [12.1667, 48.9667], "pop": 7037, "tier": 5}, {"name": "Rednitzhembach", "coordinates": [11.08, 49.301], "pop": 7034, "tier": 5}, {"name": "Seefeld", "coordinates": [11.214, 48.035], "pop": 7033, "tier": 5}, {"name": "Burgkunstadt", "coordinates": [11.2521, 50.1409], "pop": 6991, "tier": 5}, {"name": "Freyung", "coordinates": [13.5477, 48.8095], "pop": 6987, "tier": 5}, {"name": "Bergkirchen", "coordinates": [11.3649, 48.2567], "pop": 6955, "tier": 5}, {"name": "Kiefersfelden", "coordinates": [12.191, 47.6141], "pop": 6912, "tier": 5}, {"name": "Dettelbach", "coordinates": [10.1652, 49.803], "pop": 6888, "tier": 5}, {"name": "Geiselhöring", "coordinates": [12.3965, 48.825], "pop": 6872, "tier": 5}, {"name": "Laufen", "coordinates": [12.9286, 47.9357], "pop": 6869, "tier": 5}, {"name": "Großkarolinenfeld", "coordinates": [12.081, 47.891], "pop": 6865, "tier": 5}, {"name": "Jettingen-Scheppach", "coordinates": [10.4381, 48.3896], "pop": 6865, "tier": 5}, {"name": "Ebermannstadt", "coordinates": [11.1817, 49.7815], "pop": 6864, "tier": 5}, {"name": "Michelau", "coordinates": [11.1121, 50.1623], "pop": 6839, "tier": 5}, {"name": "Mainleus", "coordinates": [11.3766, 50.0999], "pop": 6836, "tier": 5}, {"name": "Leipheim", "coordinates": [10.2228, 48.45], "pop": 6822, "tier": 5}, {"name": "Salzweg", "coordinates": [13.4833, 48.6167], "pop": 6805, "tier": 5}, {"name": "Stegaurach", "coordinates": [10.8438, 49.8654], "pop": 6804, "tier": 5}, {"name": "Höchstädt an der Donau", "coordinates": [10.5682, 48.6112], "pop": 6795, "tier": 5}, {"name": "Grafenwöhr", "coordinates": [11.9064, 49.7173], "pop": 6790, "tier": 5}, {"name": "Gerolzhofen", "coordinates": [10.3483, 49.9002], "pop": 6781, "tier": 5}, {"name": "Parsberg", "coordinates": [11.7183, 49.1607], "pop": 6772, "tier": 5}, {"name": "Dinkelscherben", "coordinates": [10.5889, 48.3483], "pop": 6742, "tier": 5}, {"name": "Mallersdorf-Pfaffenberg", "coordinates": [12.231, 48.7664], "pop": 6742, "tier": 5}, {"name": "Sinzing", "coordinates": [12.0333, 49.0], "pop": 6724, "tier": 5}, {"name": "Wallersdorf", "coordinates": [12.7474, 48.7377], "pop": 6702, "tier": 5}, {"name": "Bad Füssing", "coordinates": [13.312, 48.351], "pop": 6701, "tier": 5}, {"name": "Durach", "coordinates": [10.3445, 47.6944], "pop": 6675, "tier": 5}, {"name": "Knetzgau", "coordinates": [10.55, 49.9833], "pop": 6647, "tier": 5}, {"name": "Bernau am Chiemsee", "coordinates": [12.3757, 47.8117], "pop": 6645, "tier": 5}, {"name": "Tuntenhausen", "coordinates": [12.0152, 47.9351], "pop": 6642, "tier": 5}, {"name": "Gangkofen", "coordinates": [12.5642, 48.437], "pop": 6638, "tier": 5}, {"name": "Türkheim", "coordinates": [10.6416, 48.064], "pop": 6632, "tier": 5}, {"name": "Eichendorf", "coordinates": [12.8559, 48.6327], "pop": 6617, "tier": 5}, {"name": "Georgensgmünd", "coordinates": [11.0167, 49.1897], "pop": 6582, "tier": 5}, {"name": "Arnstorf", "coordinates": [12.8167, 48.5584], "pop": 6570, "tier": 5}, {"name": "Vilseck", "coordinates": [11.8026, 49.6148], "pop": 6560, "tier": 5}, {"name": "Uffenheim", "coordinates": [10.2329, 49.5442], "pop": 6542, "tier": 5}, {"name": "Aschheim", "coordinates": [11.7167, 48.1711], "pop": 6531, "tier": 5}, {"name": "Weiler-Simmerberg", "coordinates": [9.9135, 47.5826], "pop": 6510, "tier": 5}, {"name": "Gochsheim", "coordinates": [10.2833, 50.0167], "pop": 6495, "tier": 5}, {"name": "Leinburg", "coordinates": [11.31, 49.4517], "pop": 6446, "tier": 5}, {"name": "Obergünzburg", "coordinates": [10.4182, 47.8454], "pop": 6424, "tier": 5}, {"name": "Ruhpolding", "coordinates": [12.65, 47.7667], "pop": 6419, "tier": 5}, {"name": "Schliersee", "coordinates": [11.8594, 47.7362], "pop": 6416, "tier": 5}, {"name": "Untermeitingen", "coordinates": [10.8069, 48.1608], "pop": 6415, "tier": 5}, {"name": "Burgebrach", "coordinates": [10.7434, 49.8283], "pop": 6412, "tier": 5}, {"name": "Schwarzenfeld", "coordinates": [12.1348, 49.3877], "pop": 6398, "tier": 5}, {"name": "Zusmarshausen", "coordinates": [10.5992, 48.4001], "pop": 6384, "tier": 5}, {"name": "Ebersdorf", "coordinates": [11.1527, 50.329], "pop": 6378, "tier": 5}, {"name": "Geisenhausen", "coordinates": [12.2582, 48.4761], "pop": 6367, "tier": 5}, {"name": "Zellingen", "coordinates": [9.8175, 49.8974], "pop": 6365, "tier": 5}, {"name": "Thannhausen", "coordinates": [10.4692, 48.2833], "pop": 6336, "tier": 5}, {"name": "Grassau", "coordinates": [12.4536, 47.781], "pop": 6323, "tier": 5}, {"name": "Pöttmes", "coordinates": [11.0876, 48.5838], "pop": 6315, "tier": 5}, {"name": "Eggolsheim", "coordinates": [11.057, 49.7696], "pop": 6313, "tier": 5}, {"name": "Untergriesbach", "coordinates": [13.6672, 48.5743], "pop": 6294, "tier": 5}, {"name": "Klingenberg am Main", "coordinates": [9.1802, 49.7851], "pop": 6294, "tier": 5}, {"name": "Waging am See", "coordinates": [12.7339, 47.9341], "pop": 6291, "tier": 5}, {"name": "Speichersdorf", "coordinates": [11.7812, 49.8713], "pop": 6284, "tier": 5}, {"name": "Hirschau", "coordinates": [11.9462, 49.544], "pop": 6258, "tier": 5}, {"name": "Mellrichstadt", "coordinates": [10.3033, 50.4285], "pop": 6254, "tier": 5}, {"name": "Wassertrüdingen", "coordinates": [10.5991, 49.0433], "pop": 6245, "tier": 5}, {"name": "Windsbach", "coordinates": [10.8265, 49.2479], "pop": 6235, "tier": 5}, {"name": "Neumarkt-Sankt Veit", "coordinates": [12.5072, 48.3605], "pop": 6231, "tier": 5}, {"name": "Haag in Oberbayern", "coordinates": [12.1794, 48.162], "pop": 6218, "tier": 5}, {"name": "Röhrmoos", "coordinates": [11.4467, 48.3297], "pop": 6199, "tier": 5}, {"name": "Emskirchen", "coordinates": [10.7128, 49.5528], "pop": 6197, "tier": 5}, {"name": "Veitsbronn", "coordinates": [10.888, 49.5124], "pop": 6194, "tier": 5}, {"name": "Pilsting", "coordinates": [12.651, 48.7012], "pop": 6194, "tier": 5}, {"name": "Ampfing", "coordinates": [12.4152, 48.254], "pop": 6188, "tier": 5}, {"name": "Dietfurt", "coordinates": [11.5862, 49.0358], "pop": 6161, "tier": 5}, {"name": "Neustadt an der Waldnaab", "coordinates": [12.1777, 49.7329], "pop": 6153, "tier": 5}, {"name": "Gerbrunn", "coordinates": [9.9936, 49.7753], "pop": 6149, "tier": 5}, {"name": "Weisendorf", "coordinates": [10.8253, 49.6228], "pop": 6118, "tier": 5}, {"name": "Litzendorf", "coordinates": [11.0103, 49.9144], "pop": 6101, "tier": 5}, {"name": "Gmund am Tegernsee", "coordinates": [11.7381, 47.7512], "pop": 6086, "tier": 5}, {"name": "Tittmoning", "coordinates": [12.7676, 48.0616], "pop": 6084, "tier": 5}, {"name": "Emmering", "coordinates": [11.2833, 48.1833], "pop": 6081, "tier": 5}, {"name": "Arzberg", "coordinates": [12.1868, 50.0577], "pop": 6075, "tier": 5}, {"name": "Zeil", "coordinates": [10.5947, 50.0099], "pop": 6016, "tier": 5}, {"name": "Rohrbach", "coordinates": [11.5667, 48.6167], "pop": 6015, "tier": 5}, {"name": "Nabburg", "coordinates": [12.18, 49.4535], "pop": 5994, "tier": 5}, {"name": "Sauerlach", "coordinates": [11.6538, 47.9717], "pop": 5991, "tier": 5}, {"name": "Petershausen", "coordinates": [11.4706, 48.4097], "pop": 5965, "tier": 5}, {"name": "Hutthurm", "coordinates": [13.4715, 48.6728], "pop": 5950, "tier": 5}, {"name": "Oberkotzau", "coordinates": [11.9348, 50.2624], "pop": 5920, "tier": 5}, {"name": "Kleinschwabhausen", "coordinates": [11.3573, 48.4016], "pop": 5911, "tier": 5}, {"name": "Zeitlarn", "coordinates": [12.1117, 49.0785], "pop": 5849, "tier": 5}, {"name": "Schlüsselfeld", "coordinates": [10.6187, 49.7562], "pop": 5848, "tier": 5}, {"name": "Pyrbaum", "coordinates": [11.2866, 49.2962], "pop": 5836, "tier": 5}, {"name": "Wernberg-Köblitz", "coordinates": [12.1613, 49.5393], "pop": 5830, "tier": 5}, {"name": "Bischberg", "coordinates": [10.8321, 49.9109], "pop": 5819, "tier": 5}, {"name": "Wegscheid", "coordinates": [13.7873, 48.6014], "pop": 5817, "tier": 5}, {"name": "Kleinwallstadt", "coordinates": [9.1693, 49.8746], "pop": 5816, "tier": 5}, {"name": "Buttenwiesen", "coordinates": [10.7167, 48.6], "pop": 5750, "tier": 5}, {"name": "Putzbrunn", "coordinates": [11.7157, 48.0758], "pop": 5747, "tier": 5}, {"name": "Grasbrunn", "coordinates": [11.7436, 48.0791], "pop": 5737, "tier": 5}, {"name": "Pöcking", "coordinates": [11.3, 47.9667], "pop": 5734, "tier": 5}, {"name": "Ebensfeld", "coordinates": [10.9583, 50.0664], "pop": 5721, "tier": 5}, {"name": "Markt Erlbach", "coordinates": [10.6526, 49.4937], "pop": 5716, "tier": 5}, {"name": "Dietenhofen", "coordinates": [10.6898, 49.4], "pop": 5709, "tier": 5}, {"name": "Tacherting", "coordinates": [12.5701, 48.0782], "pop": 5704, "tier": 5}, {"name": "Mengkofen", "coordinates": [12.4405, 48.7189], "pop": 5695, "tier": 5}, {"name": "Harburg", "coordinates": [10.6893, 48.7867], "pop": 5694, "tier": 5}, {"name": "Riedenburg", "coordinates": [11.6888, 48.9638], "pop": 5689, "tier": 5}, {"name": "Wemding", "coordinates": [10.7245, 48.8746], "pop": 5669, "tier": 5}, {"name": "Windischeschenbach", "coordinates": [12.1571, 49.8011], "pop": 5659, "tier": 5}, {"name": "Brannenburg", "coordinates": [12.0917, 47.74], "pop": 5646, "tier": 5}, {"name": "Erdweg", "coordinates": [11.3034, 48.3318], "pop": 5629, "tier": 5}, {"name": "Saal", "coordinates": [11.932, 48.901], "pop": 5626, "tier": 5}, {"name": "Blaichach", "coordinates": [10.2585, 47.5421], "pop": 5625, "tier": 5}, {"name": "Eltmann", "coordinates": [10.6671, 49.9715], "pop": 5614, "tier": 5}, {"name": "Altenkunstadt", "coordinates": [11.2503, 50.125], "pop": 5608, "tier": 5}, {"name": "Kolitzheim", "coordinates": [10.2333, 49.9167], "pop": 5602, "tier": 5}, {"name": "Bernhardswald", "coordinates": [12.2474, 49.0912], "pop": 5596, "tier": 5}, {"name": "Leutershausen", "coordinates": [10.4119, 49.2987], "pop": 5592, "tier": 5}, {"name": "Beratzhausen", "coordinates": [11.8097, 49.0952], "pop": 5583, "tier": 5}, {"name": "Pfreimd", "coordinates": [12.1807, 49.4911], "pop": 5565, "tier": 5}, {"name": "Bad Birnbach", "coordinates": [13.091, 48.4449], "pop": 5533, "tier": 5}, {"name": "Pottenstein", "coordinates": [11.4078, 49.7713], "pop": 5501, "tier": 5}, {"name": "Geltendorf", "coordinates": [11.0322, 48.1174], "pop": 5490, "tier": 5}, {"name": "Pentling", "coordinates": [12.0587, 48.9834], "pop": 5485, "tier": 5}, {"name": "Abenberg", "coordinates": [10.964, 49.2428], "pop": 5484, "tier": 5}, {"name": "Fischbachau", "coordinates": [11.9508, 47.7195], "pop": 5471, "tier": 5}, {"name": "Waakirchen", "coordinates": [11.6731, 47.7725], "pop": 5464, "tier": 5}, {"name": "Rohrdorf", "coordinates": [12.1701, 47.7971], "pop": 5460, "tier": 5}, {"name": "Thalmässing", "coordinates": [11.2215, 49.0883], "pop": 5442, "tier": 5}, {"name": "Bodenkirchen", "coordinates": [12.3833, 48.3833], "pop": 5442, "tier": 5}, {"name": "Pommelsbrunn", "coordinates": [11.511, 49.5044], "pop": 5432, "tier": 5}, {"name": "Au in der Hallertau", "coordinates": [11.7414, 48.5584], "pop": 5427, "tier": 5}, {"name": "Triftern", "coordinates": [13.0063, 48.3947], "pop": 5419, "tier": 5}, {"name": "Oerlenbach", "coordinates": [10.1333, 50.15], "pop": 5411, "tier": 5}, {"name": "Aschau im Chiemgau", "coordinates": [12.323, 47.7769], "pop": 5410, "tier": 5}, {"name": "Velburg", "coordinates": [11.6716, 49.2321], "pop": 5373, "tier": 5}, {"name": "Kirchdorf am Inn", "coordinates": [12.9845, 48.2475], "pop": 5366, "tier": 5}, {"name": "Erbendorf", "coordinates": [12.0459, 49.8398], "pop": 5364, "tier": 5}, {"name": "Laufach", "coordinates": [9.3, 50.0167], "pop": 5354, "tier": 5}, {"name": "Sonnefeld", "coordinates": [11.1333, 50.2167], "pop": 5345, "tier": 5}, {"name": "Oberammergau", "coordinates": [11.0669, 47.5981], "pop": 5344, "tier": 5}, {"name": "Babenhausen", "coordinates": [10.2532, 48.145], "pop": 5342, "tier": 5}, {"name": "Oettingen in Bayern", "coordinates": [10.6046, 48.9527], "pop": 5336, "tier": 5}, {"name": "Kemnath", "coordinates": [11.8908, 49.8701], "pop": 5322, "tier": 5}, {"name": "Hemhofen", "coordinates": [10.9333, 49.6833], "pop": 5322, "tier": 5}, {"name": "Dasing", "coordinates": [11.0467, 48.3848], "pop": 5321, "tier": 5}, {"name": "Schönau am Königssee", "coordinates": [12.987, 47.6005], "pop": 5315, "tier": 5}, {"name": "Riedering", "coordinates": [12.2078, 47.8387], "pop": 5315, "tier": 5}, {"name": "Schäftlarn", "coordinates": [11.4559, 47.9903], "pop": 5281, "tier": 5}, {"name": "Piding", "coordinates": [12.9167, 47.7667], "pop": 5259, "tier": 5}, {"name": "Hahnbach", "coordinates": [11.803, 49.5339], "pop": 5257, "tier": 5}, {"name": "Büchenbach", "coordinates": [11.0589, 49.2678], "pop": 5255, "tier": 5}, {"name": "Dietramszell", "coordinates": [11.5953, 47.8487], "pop": 5252, "tier": 5}, {"name": "Rottendorf", "coordinates": [10.0259, 49.7923], "pop": 5234, "tier": 5}, {"name": "Isen", "coordinates": [12.0567, 48.212], "pop": 5222, "tier": 5}, {"name": "Spalt", "coordinates": [10.9245, 49.1755], "pop": 5216, "tier": 5}, {"name": "Hollfeld", "coordinates": [11.2915, 49.9379], "pop": 5206, "tier": 5}, {"name": "Hofheim in Unterfranken", "coordinates": [10.5232, 50.1367], "pop": 5199, "tier": 5}, {"name": "Weitramsdorf", "coordinates": [10.8799, 50.256], "pop": 5183, "tier": 5}, {"name": "Bischofsheim in der Rhön", "coordinates": [10.0075, 50.4024], "pop": 5181, "tier": 5}, {"name": "Weßling", "coordinates": [11.2482, 48.0745], "pop": 5172, "tier": 5}, {"name": "Affing", "coordinates": [10.9833, 48.4667], "pop": 5171, "tier": 5}, {"name": "Moosinning", "coordinates": [11.8445, 48.2771], "pop": 5166, "tier": 5}, {"name": "Langquaid", "coordinates": [12.0513, 48.8232], "pop": 5159, "tier": 5}, {"name": "Oberthulba", "coordinates": [9.9588, 50.199], "pop": 5151, "tier": 5}, {"name": "Weitnau", "coordinates": [10.1273, 47.6417], "pop": 5143, "tier": 5}, {"name": "Großheubach", "coordinates": [9.2228, 49.7283], "pop": 5126, "tier": 5}, {"name": "Hebertshausen", "coordinates": [11.4653, 48.2896], "pop": 5121, "tier": 5}, {"name": "Schöllnach", "coordinates": [13.1778, 48.7541], "pop": 5120, "tier": 5}, {"name": "Petersaurach", "coordinates": [10.75, 49.3], "pop": 5116, "tier": 5}, {"name": "Rotthalmünster", "coordinates": [13.2016, 48.3582], "pop": 5115, "tier": 5}, {"name": "Rottach-Egern", "coordinates": [11.7706, 47.6897], "pop": 5106, "tier": 5}, {"name": "Wilhermsdorf", "coordinates": [10.7156, 49.4831], "pop": 5105, "tier": 5}, {"name": "Oberding", "coordinates": [11.85, 48.3167], "pop": 5101, "tier": 5}, {"name": "Waldbüttelbrunn", "coordinates": [9.8467, 49.7883], "pop": 5099, "tier": 5}, {"name": "Eckersdorf", "coordinates": [11.3961, 50.0287], "pop": 5071, "tier": 5}, {"name": "Mömlingen", "coordinates": [9.0833, 49.8597], "pop": 5066, "tier": 5}, {"name": "Wiggensbach", "coordinates": [10.2299, 47.7478], "pop": 5065, "tier": 5}, {"name": "Heroldsbach", "coordinates": [10.9988, 49.6934], "pop": 5058, "tier": 5}, {"name": "Nandlstadt", "coordinates": [11.8073, 48.5364], "pop": 5044, "tier": 5}, {"name": "Seubersdorf", "coordinates": [11.6271, 49.1621], "pop": 5035, "tier": 5}, {"name": "Oberviechtach", "coordinates": [12.4167, 49.4581], "pop": 5022, "tier": 5}, {"name": "Zapfendorf", "coordinates": [10.9324, 50.0178], "pop": 5017, "tier": 5}, {"name": "Rennertshofen", "coordinates": [11.0454, 48.7594], "pop": 5013, "tier": 5}, {"name": "Karlshuld", "coordinates": [11.285, 48.6819], "pop": 5012, "tier": 5}, {"name": "Heideck", "coordinates": [11.1273, 49.1337], "pop": 5011, "tier": 5}, {"name": "Leidersbach", "coordinates": [9.2217, 49.9014], "pop": 4997, "tier": 5}, {"name": "Wörth am Main", "coordinates": [9.1539, 49.7972], "pop": 4983, "tier": 5}, {"name": "Bernried", "coordinates": [12.8833, 48.9167], "pop": 4972, "tier": 5}, {"name": "Bergrheinfeld", "coordinates": [10.1809, 50.0103], "pop": 4971, "tier": 5}, {"name": "Monheim", "coordinates": [10.8583, 48.8439], "pop": 4950, "tier": 5}, {"name": "Winhöring", "coordinates": [12.65, 48.2667], "pop": 4917, "tier": 5}, {"name": "Estenfeld", "coordinates": [10.0059, 49.829], "pop": 4907, "tier": 5}, {"name": "Wackersdorf", "coordinates": [12.1833, 49.3167], "pop": 4900, "tier": 5}, {"name": "Übersee", "coordinates": [12.4833, 47.8167], "pop": 4896, "tier": 5}, {"name": "Schweitenkirchen", "coordinates": [11.6045, 48.5033], "pop": 4876, "tier": 5}, {"name": "Gefrees", "coordinates": [11.7377, 50.0954], "pop": 4876, "tier": 5}, {"name": "Röthlein", "coordinates": [10.2167, 49.9833], "pop": 4875, "tier": 5}, {"name": "Creußen", "coordinates": [11.6268, 49.8449], "pop": 4871, "tier": 5}, {"name": "Baar-Ebenhausen", "coordinates": [11.4698, 48.6707], "pop": 4862, "tier": 5}, {"name": "Weismain", "coordinates": [11.2402, 50.0851], "pop": 4840, "tier": 5}, {"name": "Frensdorf", "coordinates": [10.8667, 49.8167], "pop": 4827, "tier": 5}, {"name": "Maßbach", "coordinates": [10.2752, 50.1832], "pop": 4819, "tier": 5}, {"name": "Pliening", "coordinates": [11.8007, 48.1956], "pop": 4812, "tier": 5}, {"name": "Kumhausen", "coordinates": [12.1564, 48.5094], "pop": 4812, "tier": 5}, {"name": "Niedernberg", "coordinates": [9.1369, 49.9122], "pop": 4793, "tier": 5}, {"name": "Altenstadt", "coordinates": [10.1144, 48.1603], "pop": 4790, "tier": 5}, {"name": "Barbing", "coordinates": [12.2, 49.0], "pop": 4776, "tier": 5}, {"name": "Scheinfeld", "coordinates": [10.4655, 49.6693], "pop": 4770, "tier": 5}, {"name": "Pfeffenhausen", "coordinates": [11.9659, 48.6647], "pop": 4770, "tier": 5}, {"name": "Wiesentheid", "coordinates": [10.3451, 49.7945], "pop": 4759, "tier": 5}, {"name": "Selbitz", "coordinates": [11.7502, 50.317], "pop": 4758, "tier": 5}, {"name": "Neunkirchen am Sand", "coordinates": [11.3195, 49.5246], "pop": 4758, "tier": 5}, {"name": "Oberaudorf", "coordinates": [12.1724, 47.6482], "pop": 4756, "tier": 5}, {"name": "Großaitingen", "coordinates": [10.7795, 48.2275], "pop": 4747, "tier": 5}, {"name": "Frammersbach", "coordinates": [9.4689, 50.0647], "pop": 4737, "tier": 5}, {"name": "Allershausen", "coordinates": [11.6, 48.4333], "pop": 4734, "tier": 5}, {"name": "Fischach", "coordinates": [10.6559, 48.2905], "pop": 4733, "tier": 5}, {"name": "Bad Berneck im Fichtelgebirge", "coordinates": [11.6724, 50.0456], "pop": 4723, "tier": 5}, {"name": "Gablingen", "coordinates": [10.8167, 48.45], "pop": 4707, "tier": 5}, {"name": "Altenstadt an der Waldnaab", "coordinates": [12.1598, 49.7159], "pop": 4707, "tier": 5}, {"name": "Moosthenning", "coordinates": [12.4974, 48.6766], "pop": 4700, "tier": 5}, {"name": "Oberhaid", "coordinates": [11.8051, 50.1261], "pop": 4680, "tier": 5}, {"name": "Haimhausen", "coordinates": [11.5545, 48.3154], "pop": 4680, "tier": 5}, {"name": "Mintraching", "coordinates": [12.2421, 48.9536], "pop": 4668, "tier": 5}, {"name": "Karlskron", "coordinates": [11.4167, 48.6833], "pop": 4661, "tier": 5}, {"name": "Pressath", "coordinates": [11.9397, 49.7686], "pop": 4654, "tier": 5}, {"name": "Röttenbach", "coordinates": [10.9261, 49.6643], "pop": 4649, "tier": 5}, {"name": "Igensdorf", "coordinates": [11.2314, 49.6232], "pop": 4645, "tier": 5}, {"name": "Breitengüßbach", "coordinates": [10.8859, 49.9721], "pop": 4643, "tier": 5}, {"name": "Bad Bocklet", "coordinates": [10.079, 50.2665], "pop": 4642, "tier": 5}, {"name": "Waldershof", "coordinates": [12.0629, 49.9814], "pop": 4634, "tier": 5}, {"name": "Brunnthal", "coordinates": [11.684, 48.0065], "pop": 4628, "tier": 5}, {"name": "Ahorn", "coordinates": [10.9542, 50.2376], "pop": 4624, "tier": 5}, {"name": "Burgheim", "coordinates": [11.016, 48.7004], "pop": 4616, "tier": 5}, {"name": "Bellenberg", "coordinates": [10.0909, 48.2573], "pop": 4607, "tier": 5}, {"name": "Wörthsee", "coordinates": [11.2018, 48.0725], "pop": 4589, "tier": 5}, {"name": "Sulzberg", "coordinates": [10.3499, 47.6603], "pop": 4587, "tier": 5}, {"name": "Röhrnbach", "coordinates": [13.5227, 48.7386], "pop": 4579, "tier": 5}, {"name": "Wörth", "coordinates": [11.9021, 48.2453], "pop": 4559, "tier": 5}, {"name": "Rattelsdorf", "coordinates": [10.8886, 50.015], "pop": 4550, "tier": 5}, {"name": "Wartenberg", "coordinates": [11.9886, 48.406], "pop": 4548, "tier": 5}, {"name": "Uttenreuth", "coordinates": [11.0722, 49.5968], "pop": 4545, "tier": 5}, {"name": "Oy-Mittelberg", "coordinates": [10.4333, 47.6333], "pop": 4544, "tier": 5}, {"name": "Mammendorf", "coordinates": [11.1633, 48.2084], "pop": 4540, "tier": 5}, {"name": "Wörth an der Donau", "coordinates": [12.4054, 49.0009], "pop": 4524, "tier": 5}, {"name": "Rückersdorf", "coordinates": [11.2475, 49.4976], "pop": 4518, "tier": 5}, {"name": "Bubenreuth", "coordinates": [11.0172, 49.6275], "pop": 4516, "tier": 5}, {"name": "Seeon-Seebruck", "coordinates": [12.4667, 47.9667], "pop": 4513, "tier": 5}, {"name": "Bruck", "coordinates": [12.3071, 49.2493], "pop": 4510, "tier": 5}, {"name": "Chieming", "coordinates": [12.5401, 47.8926], "pop": 4503, "tier": 5}, {"name": "Thurnau", "coordinates": [11.3935, 50.0254], "pop": 4502, "tier": 5}, {"name": "Stadtlauringen", "coordinates": [10.3616, 50.1871], "pop": 4496, "tier": 5}, {"name": "Neureichenau", "coordinates": [13.747, 48.7486], "pop": 4480, "tier": 5}, {"name": "Pappenheim", "coordinates": [10.9743, 48.9338], "pop": 4476, "tier": 5}, {"name": "Güntersleben", "coordinates": [9.905, 49.8697], "pop": 4472, "tier": 5}, {"name": "Fahrenzhausen", "coordinates": [11.5552, 48.3532], "pop": 4466, "tier": 5}, {"name": "Aindling", "coordinates": [10.9532, 48.5136], "pop": 4451, "tier": 5}, {"name": "Scheyern", "coordinates": [11.4667, 48.5], "pop": 4450, "tier": 5}, {"name": "Tegernheim", "coordinates": [12.173, 49.0239], "pop": 4439, "tier": 5}, {"name": "Schechen", "coordinates": [12.1239, 47.9291], "pop": 4430, "tier": 5}, {"name": "Frontenhausen", "coordinates": [12.5312, 48.5463], "pop": 4430, "tier": 5}, {"name": "Gessertshausen", "coordinates": [10.7328, 48.329], "pop": 4424, "tier": 5}, {"name": "Ihrlerstein", "coordinates": [11.8667, 48.9333], "pop": 4419, "tier": 5}, {"name": "Iphofen", "coordinates": [10.2604, 49.7024], "pop": 4413, "tier": 5}, {"name": "Otterfing", "coordinates": [11.6755, 47.909], "pop": 4383, "tier": 5}, {"name": "Giebelstadt", "coordinates": [9.9444, 49.6531], "pop": 4379, "tier": 5}, {"name": "Schnaittenbach", "coordinates": [12.0018, 49.5469], "pop": 4375, "tier": 5}, {"name": "Möhrendorf", "coordinates": [11.0, 49.6333], "pop": 4349, "tier": 5}, {"name": "Asbach-Bäumenheim", "coordinates": [10.8167, 48.6833], "pop": 4346, "tier": 5}, {"name": "Kaisheim", "coordinates": [10.7964, 48.7675], "pop": 4344, "tier": 5}, {"name": "Bürgstadt", "coordinates": [9.2692, 49.7148], "pop": 4342, "tier": 5}, {"name": "Metten", "coordinates": [12.9155, 48.8551], "pop": 4335, "tier": 5}, {"name": "Kürnach", "coordinates": [10.0333, 49.85], "pop": 4332, "tier": 5}, {"name": "Inzell", "coordinates": [12.7515, 47.763], "pop": 4320, "tier": 5}, {"name": "Glonn", "coordinates": [11.8672, 47.9875], "pop": 4317, "tier": 5}, {"name": "Neuburg", "coordinates": [13.4472, 48.5065], "pop": 4313, "tier": 5}, {"name": "Feldafing", "coordinates": [11.2933, 47.946], "pop": 4293, "tier": 5}, {"name": "Bad Wiessee", "coordinates": [11.7167, 47.7167], "pop": 4293, "tier": 5}, {"name": "Aldersbach", "coordinates": [13.0897, 48.5897], "pop": 4293, "tier": 5}, {"name": "Deining", "coordinates": [11.5397, 49.2256], "pop": 4289, "tier": 5}, {"name": "Aßling", "coordinates": [12.0064, 47.993], "pop": 4288, "tier": 5}, {"name": "Kirchberg", "coordinates": [13.182, 48.9001], "pop": 4279, "tier": 5}, {"name": "Pressig", "coordinates": [11.3097, 50.3524], "pop": 4277, "tier": 5}, {"name": "Odelzhausen", "coordinates": [11.1989, 48.3089], "pop": 4275, "tier": 5}, {"name": "Großhabersdorf", "coordinates": [10.7833, 49.4], "pop": 4274, "tier": 5}, {"name": "Nüdlingen", "coordinates": [10.123, 50.2206], "pop": 4273, "tier": 5}, {"name": "Freudenberg", "coordinates": [11.9833, 49.4833], "pop": 4268, "tier": 5}, {"name": "Döhlau", "coordinates": [11.95, 50.2833], "pop": 4235, "tier": 5}, {"name": "Neubeuern", "coordinates": [12.14, 47.7737], "pop": 4234, "tier": 5}, {"name": "Altenmarkt", "coordinates": [12.1356, 47.7796], "pop": 4219, "tier": 5}, {"name": "Vierkirchen", "coordinates": [11.4667, 48.3667], "pop": 4216, "tier": 5}, {"name": "Untersiemau", "coordinates": [10.9745, 50.1942], "pop": 4208, "tier": 5}, {"name": "Scheidegg", "coordinates": [9.8483, 47.5814], "pop": 4198, "tier": 5}, {"name": "Kochel", "coordinates": [11.3683, 47.6593], "pop": 4172, "tier": 5}, {"name": "Grabenstätt", "coordinates": [12.5433, 47.8453], "pop": 4152, "tier": 5}, {"name": "Lautertal", "coordinates": [10.9667, 50.3333], "pop": 4150, "tier": 5}, {"name": "Gößweinstein", "coordinates": [11.3384, 49.769], "pop": 4147, "tier": 5}, {"name": "Massing", "coordinates": [12.6095, 48.3912], "pop": 4144, "tier": 5}, {"name": "Fridolfing", "coordinates": [12.8263, 47.9977], "pop": 4133, "tier": 5}, {"name": "Spiegelau", "coordinates": [13.3623, 48.9152], "pop": 4132, "tier": 5}, {"name": "Eschau", "coordinates": [9.2592, 49.8189], "pop": 4129, "tier": 5}, {"name": "Kraiburg am Inn", "coordinates": [12.4307, 48.1819], "pop": 4127, "tier": 5}, {"name": "Wilhelmsthal", "coordinates": [11.3728, 50.3111], "pop": 4123, "tier": 5}, {"name": "Poppenhausen", "coordinates": [10.1424, 50.1], "pop": 4119, "tier": 5}, {"name": "Inning am Ammersee", "coordinates": [11.1523, 48.0764], "pop": 4111, "tier": 5}, {"name": "Meeder", "coordinates": [10.907, 50.3212], "pop": 4107, "tier": 5}, {"name": "Grettstadt", "coordinates": [10.3167, 49.9833], "pop": 4106, "tier": 5}, {"name": "Gräfenberg", "coordinates": [11.2497, 49.6443], "pop": 4105, "tier": 5}, {"name": "Sankt Wolfgang", "coordinates": [12.1333, 48.2167], "pop": 4102, "tier": 5}, {"name": "Offingen", "coordinates": [10.3625, 48.4826], "pop": 4099, "tier": 5}, {"name": "Seßlach", "coordinates": [10.842, 50.1897], "pop": 4088, "tier": 5}, {"name": "Großwallstadt", "coordinates": [9.1534, 49.8794], "pop": 4081, "tier": 5}, {"name": "Tapfheim", "coordinates": [10.6838, 48.6732], "pop": 4077, "tier": 5}, {"name": "Thyrnau", "coordinates": [13.5333, 48.6167], "pop": 4075, "tier": 5}, {"name": "Traitsching", "coordinates": [12.65, 49.15], "pop": 4074, "tier": 5}, {"name": "Üchtelhausen", "coordinates": [10.2686, 50.0918], "pop": 4073, "tier": 5}, {"name": "Neukirchen beim Heiligen Blut", "coordinates": [12.9687, 49.2587], "pop": 4071, "tier": 5}, {"name": "Neukirchen", "coordinates": [12.9692, 49.2602], "pop": 4071, "tier": 5}, {"name": "Finsing", "coordinates": [11.8241, 48.2161], "pop": 4068, "tier": 5}, {"name": "Waldaschaff", "coordinates": [9.3019, 49.9753], "pop": 4056, "tier": 5}, {"name": "Sennfeld", "coordinates": [10.2599, 50.0389], "pop": 4054, "tier": 5}, {"name": "Münsing", "coordinates": [11.3667, 47.9], "pop": 4047, "tier": 5}, {"name": "Rettenberg", "coordinates": [10.2917, 47.5743], "pop": 4043, "tier": 5}, {"name": "Aying", "coordinates": [11.7775, 47.9701], "pop": 4040, "tier": 5}, {"name": "Tann", "coordinates": [12.893, 48.3146], "pop": 4039, "tier": 5}, {"name": "Weiherhammer", "coordinates": [12.0667, 49.6333], "pop": 4036, "tier": 5}, {"name": "Zell am Main", "coordinates": [9.8696, 49.8121], "pop": 4035, "tier": 5}, {"name": "Zolling", "coordinates": [11.7667, 48.45], "pop": 4029, "tier": 5}, {"name": "Bodenwöhr", "coordinates": [12.3015, 49.2708], "pop": 4025, "tier": 5}, {"name": "Schwebheim", "coordinates": [10.2478, 49.9904], "pop": 4023, "tier": 5}, {"name": "Marktrodach", "coordinates": [11.3833, 50.25], "pop": 4007, "tier": 5}, {"name": "Biessenhofen", "coordinates": [10.6402, 47.8306], "pop": 4006, "tier": 5}, {"name": "Reichenberg", "coordinates": [9.9148, 49.7319], "pop": 4004, "tier": 5}]